<?xml version="1.0" encoding="UTF-8"?>
<markers>
<marker id="1" name="The Arabian Plate" address="7/26, Shastri Nagar Main Rd, Ramakrishnapuram, Balakrishnapuram, Adambakkam, Chennai, Tamil Nadu 600088" rating="3.56" lat="12.989886" lng="80.205200" type="restaurant"/>
<marker id="2" name="Deepam Tiffin Center" address="Brindavan Nagar Main Rd, Mohanapuri, New Colony, Adambakkam, Chennai, Tamil Nadu 600088" rating="2.48" lat="12.986114" lng="80.204914" type="restaurant"/>
<marker id="3" name="The Chennai Dhaba" address="No.49,Vellalar street,, Karuneegar St, Adambakkam, Chennai, Tamil Nadu 600088" lat="12.992429" rating="3.43" lng="80.199035" type="restaurant"/>
<marker id="4" name="Kailash Parbat" address="No9. 1st Floor, 2nd Avenue, Harrington Road, Chetpet, Chennai, Tamil Nadu 600031" rating="4.5" lat="13.072798" lng="80.236121" type="restaurant"/>
<marker id="5" name="Ox and Tomato" address="13th Ave, Chetpet, Chennai, Tamil Nadu 600031" rating="3.24" lat="13.069738" lng="80.237795" type="restaurant"/>
<marker id="6" name="Wangs Kitchen" address="French Loaf, 9, Harrington Rd, Chetpet, Chennai, Tamil Nadu 600031" rating="4.3" lat="13.069307" lng="80.237815" type="restaurant"/>
<marker id="7" name="Namma Chennai" address="5, murugesan Street, Jafferkhanpet , West Saidapet, Subramani St, Murugesan Nagar, Saidapet, Chennai, Tamil Nadu 600083" rating="3.76" lat="13.026212" lng="80.211759" type="restaurant"/>
<marker id="8" name="AI Arabian Delights" address="No.51, Mosque St, Suriyammapet, Saidapet, Masoodhipallam, Tamil Nadu 600015" rating="2.45" lat="13.021947" lng="80.219569" type="restaurant"/>
<marker id="9" name="Sri Balaji Bhavan" address="45, Jeenis Rd, near Panagal Maligai, Saidapet, Chennai, Tamil Nadu 600015" rating="4.32" lat="13.020452" lng="80.224605" type="restaurant"/>
<marker id="10" name="Pottery Kitchen" address="19, 11, Mosque St, West Saidapet, Saidapet, Chennai, Tamil Nadu 600015" rating="3.21" lat="13.021803" lng="80.219598" type="restaurant"/>
</markers>
